{
"type": "FeatureCollection",
                                                                                
"features": [
{ "type": "Feature", "properties": { "id": "en_AUS_austra_int", "name": "the australian", "city": "Sydney", "lat": -33.867490, "long": 151.206990 }, "geometry": { "type": "Point", "coordinates": [ 151.20699, -33.86749 ] } },
{ "type": "Feature", "properties": { "id": "en_AUS_hersun_int", "name": "Herald Sun", "city": "Melbourne", "lat": -37.814110, "long": 144.963280 }, "geometry": { "type": "Point", "coordinates": [ 144.96328, -37.81411 ] } },
{ "type": "Feature", "properties": { "id": "en_CAN_starca_int", "name": "The Star", "city": "Toronto", "lat": 43.653230, "long": -79.383180 }, "geometry": { "type": "Point", "coordinates": [ -79.38318, 43.65323 ] } },
{ "type": "Feature", "properties": { "id": "en_CAN_vansun_int", "name": "The Vancouver Sun", "city": "Vancouver", "lat": 49.282730, "long": -123.120740 }, "geometry": { "type": "Point", "coordinates": [ -123.12074, 49.28273 ] } },
{ "type": "Feature", "properties": { "id": "en_CHN_chinad_int", "name": "China Daily", "city": "Pekin", "lat": 39.904210, "long": 116.407390 }, "geometry": { "type": "Point", "coordinates": [ 116.40739, 39.90421 ] } },
{ "type": "Feature", "properties": { "id": "en_CHN_mopost_int", "name": "South China Morning Post", "city": "Hong Kong", "lat": 22.278320, "long": 114.174690 }, "geometry": { "type": "Point", "coordinates": [ 114.17469, 22.27832 ] } },
{ "type": "Feature", "properties": { "id": "en_GBR_dailyt_int", "name": "Daily telegraph", "city": "London", "lat": 51.507350, "long": -0.127760 }, "geometry": { "type": "Point", "coordinates": [ -0.12776, 51.50735 ] } },
{ "type": "Feature", "properties": { "id": "en_GBR_guardi_int", "name": "The Guardian", "city": "London", "lat": 51.507350, "long": -0.127760 }, "geometry": { "type": "Point", "coordinates": [ -0.12776, 51.50735 ] } },
{ "type": "Feature", "properties": { "id": "en_IND_hindti_int", "name": "Hindustan Times", "city": "New Dehli", "lat": 28.612910, "long": 77.229510 }, "geometry": { "type": "Point", "coordinates": [ 77.22951, 28.61291 ] } },
{ "type": "Feature", "properties": { "id": "en_IND_tindia_int", "name": "The times of India", "city": "Bombay", "lat": 19.075980, "long": 72.877660 }, "geometry": { "type": "Point", "coordinates": [ 72.87766, 19.07598 ] } },
{ "type": "Feature", "properties": { "id": "en_JPN_jatime_int", "name": "Japan Times", "city": "Tokyo", "lat": 35.709030, "long": 139.731990 }, "geometry": { "type": "Point", "coordinates": [ 139.73199, 35.70903 ] } },
{ "type": "Feature", "properties": { "id": "en_MLT_tmalta_int", "name": "times of malta", "city": "La valette", "lat": 35.898910, "long": 14.514550 }, "geometry": { "type": "Point", "coordinates": [ 14.51455, 35.89891 ] } },
{ "type": "Feature", "properties": { "id": "en_MYS_starmy_int", "name": "The Star (malaisie)", "city": "Petaling Jaya", "lat": 3.127890, "long": 101.594490 }, "geometry": { "type": "Point", "coordinates": [ 101.59449, 3.12789 ] } },
{ "type": "Feature", "properties": { "id": "en_NGA_thiday_int", "name": "This Day", "city": "Lagos", "lat": 6.524380, "long": 3.379210 }, "geometry": { "type": "Point", "coordinates": [ 3.37921, 6.52438 ] } },
{ "type": "Feature", "properties": { "id": "en_NZL_nzhera_int", "name": "New Zealand Herald", "city": "Auckland", "lat": -36.848460, "long": 174.763330 }, "geometry": { "type": "Point", "coordinates": [ 174.76333, -36.84846 ] } },
{ "type": "Feature", "properties": { "id": "en_PAK_newint_int", "name": "The News International", "city": "Karachi", "lat": 24.861460, "long": 67.009940 }, "geometry": { "type": "Point", "coordinates": [ 67.00994, 24.86146 ] } },
{ "type": "Feature", "properties": { "id": "en_SGP_twoday_int", "name": "Today", "city": "Singapour", "lat": 1.355380, "long": 103.867740 }, "geometry": { "type": "Point", "coordinates": [ 103.86774, 1.35538 ] } },
{ "type": "Feature", "properties": { "id": "en_USA_nytime_int", "name": "The New York Times", "city": "New york", "lat": 40.712780, "long": -74.005940 }, "geometry": { "type": "Point", "coordinates": [ -74.00594, 40.71278 ] } },
{ "type": "Feature", "properties": { "id": "en_USA_wapost_int", "name": "Washington Post", "city": "Washington", "lat": 38.907190, "long": -77.036870 }, "geometry": { "type": "Point", "coordinates": [ -77.03687, 38.90719 ] } },
{ "type": "Feature", "properties": { "id": "en_ZWE_chroni_int", "name": "Chronicle", "city": "Bulawayo", "lat": -20.132510, "long": 28.626480 }, "geometry": { "type": "Point", "coordinates": [ 28.62648, -20.13251 ] } },
{ "type": "Feature", "properties": { "id": "es_ARG_nacion_int", "name": "La Nacion", "city": "Buenos aires", "lat": -34.603680, "long": -58.381560 }, "geometry": { "type": "Point", "coordinates": [ -58.38156, -34.60368 ] } },
{ "type": "Feature", "properties": { "id": "es_BOL_larazo_int", "name": "La Razon", "city": "La paz", "lat": -16.489690, "long": -68.119290 }, "geometry": { "type": "Point", "coordinates": [ -68.11929, -16.48969 ] } },
{ "type": "Feature", "properties": { "id": "es_BOL_patria_int", "name": "La patria", "city": "Oruro", "lat": -17.964680, "long": -67.106040 }, "geometry": { "type": "Point", "coordinates": [ -67.10604, -17.96468 ] } },
{ "type": "Feature", "properties": { "id": "es_CHL_mercur_int", "name": "El mercurio", "city": "Santiago", "lat": -33.448890, "long": -70.669270 }, "geometry": { "type": "Point", "coordinates": [ -70.66927, -33.44889 ] } },
{ "type": "Feature", "properties": { "id": "es_CHL_tercer_int", "name": "La Tercera", "city": "Santiago", "lat": -33.448890, "long": -70.669270 }, "geometry": { "type": "Point", "coordinates": [ -70.66927, -33.44889 ] } },
{ "type": "Feature", "properties": { "id": "es_ESP_catalu_int", "name": "El periodico de Catalunya", "city": "Barcelone", "lat": 41.385060, "long": 2.173400 }, "geometry": { "type": "Point", "coordinates": [ 2.1734, 41.38506 ] } },
{ "type": "Feature", "properties": { "id": "es_ESP_elpais_int", "name": "El Pais", "city": "Madrid", "lat": 40.416780, "long": -3.703790 }, "geometry": { "type": "Point", "coordinates": [ -3.70379, 40.41678 ] } },
{ "type": "Feature", "properties": { "id": "es_MEX_jormex_int", "name": "La Jordana (Mex)", "city": "Mexico", "lat": 19.432610, "long": -99.133210 }, "geometry": { "type": "Point", "coordinates": [ -99.13321, 19.43261 ] } },
{ "type": "Feature", "properties": { "id": "es_MEX_univer_int", "name": "El Universal", "city": "Mexico", "lat": 19.432610, "long": -99.133210 }, "geometry": { "type": "Point", "coordinates": [ -99.13321, 19.43261 ] } },
{ "type": "Feature", "properties": { "id": "es_VEN_univer_int", "name": "El Universal (VEN)", "city": "Caracas", "lat": 10.480590, "long": -66.903610 }, "geometry": { "type": "Point", "coordinates": [ -66.90361, 10.48059 ] } },
{ "type": "Feature", "properties": { "id": "fr_BEL_derheu_int", "name": "Derniere Heure", "city": "Bruxelles", "lat": 50.850340, "long": 4.351710 }, "geometry": { "type": "Point", "coordinates": [ 4.35171, 50.85034 ] } },
{ "type": "Feature", "properties": { "id": "fr_BEL_lesoir_int", "name": "Le soir", "city": "Bruxelles", "lat": 50.850340, "long": 4.351710 }, "geometry": { "type": "Point", "coordinates": [ 4.35171, 50.85034 ] } },
{ "type": "Feature", "properties": { "id": "fr_CAN_jmontr_int", "name": "Le Journal de Montreal", "city": "Montreal", "lat": 45.501690, "long": -73.567260 }, "geometry": { "type": "Point", "coordinates": [ -73.56726, 45.50169 ] } },
{ "type": "Feature", "properties": { "id": "fr_DZA_elwata_int", "name": "El Watan", "city": "Alger", "lat": 36.753770, "long": 3.058790 }, "geometry": { "type": "Point", "coordinates": [ 3.05879, 36.75377 ] } },
{ "type": "Feature", "properties": { "id": "fr_DZA_xpress_int", "name": "LExpression", "city": "Alger", "lat": 36.753770, "long": 3.058790 }, "geometry": { "type": "Point", "coordinates": [ 3.05879, 36.75377 ] } },
{ "type": "Feature", "properties": { "id": "fr_FRA_lepari_int", "name": "Le Parisien", "city": "Saint Ouen", "lat": 48.911860, "long": 2.333760 }, "geometry": { "type": "Point", "coordinates": [ 2.33376, 48.91186 ] } },
{ "type": "Feature", "properties": { "id": "fr_FRA_lmonde_int", "name": "Le Monde", "city": "Paris", "lat": 48.856610, "long": 2.352220 }, "geometry": { "type": "Point", "coordinates": [ 2.35222, 48.85661 ] } }
]
}
